{
"type": "FeatureCollection",
"name": "Community_Health_Centers",
"crs": { "type": "name", "properties": { "name": "urn:ogc:def:crs:OGC:1.3:CRS84" } },
"features": [
{ "type": "Feature", "properties": { "NAME": "CHA Broadway Health Center", "ADDRESS": "300 Broadway", "MUNICIPALITY": "Somerville ", "GEOG_MUNI": "SOMERVILLE", "ZIP_CODE": "02145", "PHONE": "(617) 284-7000", "WEBSITE": "https://www.challiance.org/location/primary-care-locations.aspx", "SERVICES": "Primary Care", "MAD_ID": "3212113", "OBJECTID": 1 }, "geometry": { "type": "Point", "coordinates": [ -71.092983896207542, 42.392106320684647 ] } },
{ "type": "Feature", "properties": { "NAME": "CHA East Cambridge Health Center", "ADDRESS": "163 Gore Street", "MUNICIPALITY": "Cambridge ", "GEOG_MUNI": "CAMBRIDGE", "ZIP_CODE": "02141", "PHONE": "(617) 665-3000", "WEBSITE": "https://www.challiance.org/location/primary-care-locations.aspx", "SERVICES": "Primary Care", "MAD_ID": "3622493", "OBJECTID": 2 }, "geometry": { "type": "Point", "coordinates": [ -71.085392399808626, 42.373062324058402 ] } },
{ "type": "Feature", "properties": { "NAME": "CHA Cambridge Family Health North", "ADDRESS": "2067 Mass Avenue", "MUNICIPALITY": "Cambridge ", "GEOG_MUNI": "CAMBRIDGE", "ZIP_CODE": "02140", "PHONE": "(617) 575-5570", "WEBSITE": "https://www.challiance.org/location/primary-care-locations.aspx", "SERVICES": "Primary Care", "MAD_ID": "3611250", "OBJECTID": 3 }, "geometry": { "type": "Point", "coordinates": [ -71.122962886392671, 42.391575321745229 ] } },
{ "type": "Feature", "properties": { "NAME": "CHA Cambridge Family Health", "ADDRESS": "237 Hampshire Street", "MUNICIPALITY": "Cambridge ", "GEOG_MUNI": "CAMBRIDGE", "ZIP_CODE": "02139", "PHONE": "(617) 575-5570", "WEBSITE": "https://www.challiance.org/location/primary-care-locations.aspx", "SERVICES": "Primary Care", "MAD_ID": "3618982", "OBJECTID": 4 }, "geometry": { "type": "Point", "coordinates": [ -71.100854394676631, 42.37399832437498 ] } },
{ "type": "Feature", "properties": { "NAME": "Caring Health Center – Forest Park at the “X”", "ADDRESS": "532 Sumner Avenue", "MUNICIPALITY": "Springfield ", "GEOG_MUNI": "SPRINGFIELD", "ZIP_CODE": "01108", "PHONE": "(413) 739-1100", "WEBSITE": "https://www.caringhealth.org", "SERVICES": "Dental, Primary Care", "MAD_ID": "598018", "OBJECTID": 5 }, "geometry": { "type": "Point", "coordinates": [ -72.557148435529882, 42.086610427134026 ] } },
{ "type": "Feature", "properties": { "NAME": "Cambridge Health Alliance Health Centers", "ADDRESS": "1493 Cambridge Street", "MUNICIPALITY": "Cambridge ", "GEOG_MUNI": "CAMBRIDGE", "ZIP_CODE": "02139", "PHONE": "(617) 665-2300", "WEBSITE": "https://www.challiance.org/locations/locations.shtml", "SERVICES": "Primary Care", "MAD_ID": "3618038", "OBJECTID": 6 }, "geometry": { "type": "Point", "coordinates": [ -71.104323893493969, 42.374736324345754 ] } },
{ "type": "Feature", "properties": { "NAME": "Brockton Neighborhood Health Center", "ADDRESS": "63 Main Street", "MUNICIPALITY": "Brockton ", "GEOG_MUNI": "BROCKTON", "ZIP_CODE": "02301", "PHONE": "(508) 559-6699", "WEBSITE": "https://www.bnhc.org", "SERVICES": "Dental, Eye, Primary Care", "MAD_ID": "3273486", "OBJECTID": 7 }, "geometry": { "type": "Point", "coordinates": [ -71.020151437830094, 42.084540377003037 ] } },
{ "type": "Feature", "properties": { "NAME": "CHA Malden Family Medicine Center", "ADDRESS": "195 Canal Street", "MUNICIPALITY": "Malden ", "GEOG_MUNI": "MALDEN", "ZIP_CODE": "02148", "PHONE": "(781) 338-0500", "WEBSITE": "https://www.challiance.org/location/primary-care-locations.aspx", "SERVICES": "Primary Care", "MAD_ID": "3030169", "OBJECTID": 8 }, "geometry": { "type": "Point", "coordinates": [ -71.072796901223285, 42.419844314774807 ] } },
{ "type": "Feature", "properties": { "NAME": "Community Health Connections: ACTION Community Health Center", "ADDRESS": "130 Water Street", "MUNICIPALITY": "Fitchburg ", "GEOG_MUNI": "FITCHBURG", "ZIP_CODE": "01420", "PHONE": "(978) 878-8100", "WEBSITE": "https://www.chcfhc.org", "SERVICES": "Dental, Primary Care", "MAD_ID": "1350399", "OBJECTID": 9 }, "geometry": { "type": "Point", "coordinates": [ -71.794011654843743, 42.580539307905504 ] } },
{ "type": "Feature", "properties": { "NAME": "Baystate Mason Square Community Health Center", "ADDRESS": "11 Wilbraham Road", "MUNICIPALITY": "Springfield ", "GEOG_MUNI": "SPRINGFIELD", "ZIP_CODE": "01109", "PHONE": "(413) 794-3710", "WEBSITE": "https://www.baystatehealth.org/locations/mason-square-neighborhood-health-center", "SERVICES": "Primary Care", "MAD_ID": "568303", "OBJECTID": 10 }, "geometry": { "type": "Point", "coordinates": [ -72.563290932031023, 42.11098242270608 ] } },
{ "type": "Feature", "properties": { "NAME": "Baystate Brightwood Health Center/Centro de Salud", "ADDRESS": "380 Plainfield Street", "MUNICIPALITY": "Springfield ", "GEOG_MUNI": "SPRINGFIELD", "ZIP_CODE": "01107", "PHONE": "(413) 794-4458", "WEBSITE": "https://www.baystatehealth.org/locations/brightwood-health-center-centro-de-salud", "SERVICES": "Primary Care", "MAD_ID": "580842", "OBJECTID": 11 }, "geometry": { "type": "Point", "coordinates": [ -72.614415414989224, 42.11723742326182 ] } },
{ "type": "Feature", "properties": { "NAME": "CHP Adams Family Dental (ADC)", "ADDRESS": "19 Depot Street", "MUNICIPALITY": "Adams ", "GEOG_MUNI": "ADAMS", "ZIP_CODE": "01220", "PHONE": "(413) 528-9311", "WEBSITE": "https://www.chpberkshires.org", "SERVICES": "Dental, Primary Care", "MAD_ID": "92789", "OBJECTID": 12 }, "geometry": { "type": "Point", "coordinates": [ -73.118469218557379, 42.623685345233966 ] } },
{ "type": "Feature", "properties": { "NAME": "Dimock Community Health Center", "ADDRESS": "55 Dimock Street", "MUNICIPALITY": "Boston ", "GEOG_MUNI": "BOSTON", "ZIP_CODE": "02119", "PHONE": "(617) 442-8800", "WEBSITE": "https://www.dimock.org", "SERVICES": "Dental, Eye, Primary Care", "MAD_ID": "35155771", "OBJECTID": 13 }, "geometry": { "type": "Point", "coordinates": [ -71.097654898876129, 42.31979133457596 ] } },
{ "type": "Feature", "properties": { "NAME": "DotHouse Health", "ADDRESS": "1353 Dorchester Avenue", "MUNICIPALITY": "Boston ", "GEOG_MUNI": "BOSTON", "ZIP_CODE": "02122", "PHONE": "(617) 288-3230", "WEBSITE": "https://www.dorchesterhouse.org", "SERVICES": "Dental, Eye, Primary Care", "MAD_ID": "35155689", "OBJECTID": 14 }, "geometry": { "type": "Point", "coordinates": [ -71.05944991230578, 42.304437336277957 ] } },
{ "type": "Feature", "properties": { "NAME": "Community Health Center of Cape Cod – Mashpee", "ADDRESS": "107 Commercial Street", "MUNICIPALITY": "Mashpee ", "GEOG_MUNI": "MASHPEE", "ZIP_CODE": "02649", "PHONE": "(508) 477-7090", "WEBSITE": "https://www.chcofcapecod.org", "SERVICES": "Dental, Eye, Primary Care", "MAD_ID": "1947720", "OBJECTID": 15 }, "geometry": { "type": "Point", "coordinates": [ -70.490650137682621, 41.607306452548613 ] } },
{ "type": "Feature", "properties": { "NAME": "Community Health Center of Franklin County – Urgent Dental Care Clinic", "ADDRESS": "164 High Street", "MUNICIPALITY": "Greenfield ", "GEOG_MUNI": "GREENFIELD", "ZIP_CODE": "01301", "PHONE": "(413) 325-8700", "WEBSITE": "https://www.chcfc.org", "SERVICES": "Dental", "MAD_ID": "214104", "OBJECTID": 16 }, "geometry": { "type": "Point", "coordinates": [ -72.592288892324206, 42.595893332058431 ] } },
{ "type": "Feature", "properties": { "NAME": "Community Health Center of Cape Cod – Falmouth", "ADDRESS": "210 Jones Road", "MUNICIPALITY": "Falmouth ", "GEOG_MUNI": "FALMOUTH", "ZIP_CODE": "02540", "PHONE": "(508) 540-2949", "WEBSITE": "https://www.chcofcapecod.org", "SERVICES": "Dental, Primary Care", "MAD_ID": "1331458", "OBJECTID": 17 }, "geometry": { "type": "Point", "coordinates": [ -70.611479600688924, 41.56143346516042 ] } },
{ "type": "Feature", "properties": { "NAME": "NeighborHealth – East Boston – Gove St", "ADDRESS": "10 Gove Street", "MUNICIPALITY": "East Boston ", "GEOG_MUNI": "BOSTON", "ZIP_CODE": "02128", "PHONE": "(617) 569-5800", "WEBSITE": "https://www.neighborhealth.com/en/", "SERVICES": "Primary Care", "MAD_ID": "35065601", "OBJECTID": 18 }, "geometry": { "type": "Point", "coordinates": [ -71.038178415360321, 42.372279322699669 ] } },
{ "type": "Feature", "properties": { "NAME": "South Boston Community Health Center – 409 W Broadway", "ADDRESS": "409 West Broadway", "MUNICIPALITY": "Boston ", "GEOG_MUNI": "BOSTON", "ZIP_CODE": "02127", "PHONE": "(617) 269-7500", "WEBSITE": "https://www.sbchc.org", "SERVICES": "Primary Care", "MAD_ID": "35352343", "OBJECTID": 19 }, "geometry": { "type": "Point", "coordinates": [ -71.048217914115725, 42.33686432975113 ] } },
{ "type": "Feature", "properties": { "NAME": "South Boston Community Health Center – 386 W Broadway", "ADDRESS": "386 West Broadway", "MUNICIPALITY": "Boston ", "GEOG_MUNI": "BOSTON", "ZIP_CODE": "02127", "PHONE": "(617) 269-7500", "WEBSITE": "https://www.sbchc.org", "SERVICES": "Dental, Eye", "MAD_ID": "35423619", "OBJECTID": 20 }, "geometry": { "type": "Point", "coordinates": [ -71.048519413973779, 42.337611329618753 ] } },
{ "type": "Feature", "properties": { "NAME": "Harbor Health Plymouth", "ADDRESS": "10 Cordage Park Circle", "MUNICIPALITY": "Plymouth ", "GEOG_MUNI": "PLYMOUTH", "ZIP_CODE": "02360", "PHONE": "(508) 778-5470", "WEBSITE": "https://www.hhsi.us", "SERVICES": "Dental, Primary Care", "MAD_ID": "2200673", "OBJECTID": 21 }, "geometry": { "type": "Point", "coordinates": [ -70.688195552546176, 41.97937538675869 ] } },
{ "type": "Feature", "properties": { "NAME": "South Cove Community Health Center – Washington St", "ADDRESS": "885 Washington Street", "MUNICIPALITY": "Boston ", "GEOG_MUNI": "BOSTON", "ZIP_CODE": "02111", "PHONE": "(617) 482-7555", "WEBSITE": "https://www.scchc.org", "SERVICES": "Primary Care", "MAD_ID": "35145770", "OBJECTID": 22 }, "geometry": { "type": "Point", "coordinates": [ -71.064921907987213, 42.347979328170801 ] } },
{ "type": "Feature", "properties": { "NAME": "Duffy Health Center", "ADDRESS": "94 Main Street", "MUNICIPALITY": "Hyannis ", "GEOG_MUNI": "BARNSTABLE", "ZIP_CODE": "02601", "PHONE": "(508) 771-9599", "WEBSITE": "https://www.duffyhealthcenter.org", "SERVICES": "Primary Care", "MAD_ID": "1241467", "OBJECTID": 23 }, "geometry": { "type": "Point", "coordinates": [ -70.2744567057551, 41.656293436467024 ] } },
{ "type": "Feature", "properties": { "NAME": "South Cove Community Health Center – South St", "ADDRESS": "145 South Street", "MUNICIPALITY": "Boston ", "GEOG_MUNI": "BOSTON", "ZIP_CODE": "02111", "PHONE": "(617) 521-6730", "WEBSITE": "https://www.scchc.org", "SERVICES": "Dental, Eye", "MAD_ID": "35359448", "OBJECTID": 24 }, "geometry": { "type": "Point", "coordinates": [ -71.057640910204313, 42.350967327370405 ] } },
{ "type": "Feature", "properties": { "NAME": "Fenway: South End", "ADDRESS": "142 Berkeley Street", "MUNICIPALITY": "Boston ", "GEOG_MUNI": "BOSTON", "ZIP_CODE": "02116", "PHONE": "(617) 247-7555", "WEBSITE": "https://www.fenwayhealth.org", "SERVICES": "Primary Care", "MAD_ID": "35157823", "OBJECTID": 25 }, "geometry": { "type": "Point", "coordinates": [ -71.072099405580545, 42.348834328237359 ] } },
{ "type": "Feature", "properties": { "NAME": "NeighborHealth – South End", "ADDRESS": "1601 Washington Street", "MUNICIPALITY": "Boston ", "GEOG_MUNI": "BOSTON", "ZIP_CODE": "02118", "PHONE": "(617) 425-2000", "WEBSITE": "https://www.neighborhealth.com/en/", "SERVICES": "Dental, Eye, Primary Care", "MAD_ID": "35370839", "OBJECTID": 26 }, "geometry": { "type": "Point", "coordinates": [ -71.074920905265827, 42.338295330330979 ] } },
{ "type": "Feature", "properties": { "NAME": "South Cove Community Health Center – Hancock St", "ADDRESS": "435 Hancock Street", "MUNICIPALITY": "Quincy ", "GEOG_MUNI": "QUINCY", "ZIP_CODE": "02171", "PHONE": "(617) 745-0280", "WEBSITE": "https://www.scchc.org", "SERVICES": "Dental, Eye, Primary Care", "MAD_ID": "4017203", "OBJECTID": 27 }, "geometry": { "type": "Point", "coordinates": [ -71.024511925630165, 42.272271341290036 ] } },
{ "type": "Feature", "properties": { "NAME": "The Family HealthCare Center at SSTAR", "ADDRESS": "400 Stanley Street", "MUNICIPALITY": "Fall River ", "GEOG_MUNI": "FALL RIVER", "ZIP_CODE": "02720", "PHONE": "(508) 675-1054", "WEBSITE": "https://www.sstar.org/site/primaryhealth.asp", "SERVICES": "Primary Care", "MAD_ID": "3938921", "OBJECTID": 28 }, "geometry": { "type": "Point", "coordinates": [ -71.135463921086583, 41.714613451802634 ] } },
{ "type": "Feature", "properties": { "NAME": "Upham’s Corner Health Center – 500 Columbia Rd", "ADDRESS": "500 Columbia Road", "MUNICIPALITY": "Boston ", "GEOG_MUNI": "BOSTON", "ZIP_CODE": "02125", "PHONE": "(617) 287-0786", "WEBSITE": "https://uphamscornerhealthcenter.org/", "SERVICES": "Primary Care", "MAD_ID": "35035283", "OBJECTID": 29 }, "geometry": { "type": "Point", "coordinates": [ -71.067581409037857, 42.314778334569496 ] } },
{ "type": "Feature", "properties": { "NAME": "Community Health Center of Franklin County", "ADDRESS": "102 Main Street", "MUNICIPALITY": "Greenfield ", "GEOG_MUNI": "GREENFIELD", "ZIP_CODE": "01301", "PHONE": "(413) 325-8500", "WEBSITE": "https://www.chcfc.org", "SERVICES": "Dental, Primary Care", "MAD_ID": "219167", "OBJECTID": 30 }, "geometry": { "type": "Point", "coordinates": [ -72.605536888493816, 42.587928334011352 ] } },
{ "type": "Feature", "properties": { "NAME": "Upham’s Corner Health Center – 636 Columbia Rd", "ADDRESS": "636 Columbia Road", "MUNICIPALITY": "Boston ", "GEOG_MUNI": "BOSTON", "ZIP_CODE": "02125", "PHONE": "(617) 825-9839", "WEBSITE": "https://uphamscornerhealthcenter.org/", "SERVICES": "Dental, Eye", "MAD_ID": "35035327", "OBJECTID": 31 }, "geometry": { "type": "Point", "coordinates": [ -71.064089409970777, 42.318468333756122 ] } },
{ "type": "Feature", "properties": { "NAME": "Upham’s Corner Health Center – 415 Columbia Rd", "ADDRESS": "415 Columbia Road", "MUNICIPALITY": "Boston ", "GEOG_MUNI": "BOSTON", "ZIP_CODE": "02125", "PHONE": "(617) 287-8000", "WEBSITE": "https://uphamscornerhealthcenter.org/", "SERVICES": "Primary Care", "MAD_ID": "35384790", "OBJECTID": 32 }, "geometry": { "type": "Point", "coordinates": [ -71.068584908870989, 42.311979335134112 ] } },
{ "type": "Feature", "properties": { "NAME": "CHA Union Square Family Health", "ADDRESS": "26 Central Street", "MUNICIPALITY": "Somerville ", "GEOG_MUNI": "SOMERVILLE", "ZIP_CODE": "02143", "PHONE": "(617) 665-3370", "WEBSITE": "https://www.challiance.org/location/primary-care-locations.aspx", "SERVICES": "Primary Care", "MAD_ID": "3226989", "OBJECTID": 33 }, "geometry": { "type": "Point", "coordinates": [ -71.10605189233236, 42.384942322462962 ] } },
{ "type": "Feature", "properties": { "NAME": "Whittier Street Health Center", "ADDRESS": "1290 Tremont Street", "MUNICIPALITY": "Boston ", "GEOG_MUNI": "BOSTON", "ZIP_CODE": "02120", "PHONE": "(617) 427-1000", "WEBSITE": "https://www.wshc.org", "SERVICES": "Dental, Eye, Primary Care", "MAD_ID": "35341990", "OBJECTID": 34 }, "geometry": { "type": "Point", "coordinates": [ -71.091998400002751, 42.332373332002369 ] } },
{ "type": "Feature", "properties": { "NAME": "Hilltown: Worthington Health Center", "ADDRESS": "58 Old North Road", "MUNICIPALITY": "Worthington ", "GEOG_MUNI": "WORTHINGTON", "ZIP_CODE": "01098", "PHONE": "(413) 238-5511", "WEBSITE": "https://www.hchcweb.org", "SERVICES": "Dental, Primary Care", "MAD_ID": "929102", "OBJECTID": 35 }, "geometry": { "type": "Point", "coordinates": [ -72.938253290817144, 42.414354378213417 ] } },
{ "type": "Feature", "properties": { "NAME": "South Cove Community Health Center – Holmes St", "ADDRESS": "88 Holmes Street", "MUNICIPALITY": "Quincy ", "GEOG_MUNI": "QUINCY", "ZIP_CODE": "02171", "PHONE": "(617) 318-3200", "WEBSITE": "https://www.scchc.org", "SERVICES": "Dental, Eye, Primary Care", "MAD_ID": "4007387", "OBJECTID": 36 }, "geometry": { "type": "Point", "coordinates": [ -71.025479425303203, 42.272433341289911 ] } },
{ "type": "Feature", "properties": { "NAME": "Springfield Health Services for the Homeless Health Center", "ADDRESS": "1145 Main Street", "MUNICIPALITY": "Springfield ", "GEOG_MUNI": "SPRINGFIELD", "ZIP_CODE": "01103", "PHONE": "(413) 750-2067", "WEBSITE": "https://www.springfield-ma.gov/hhs/", "SERVICES": "Dental, Primary Care", "MAD_ID": "567034", "OBJECTID": 37 }, "geometry": { "type": "Point", "coordinates": [ -72.585957425286722, 42.100569425460009 ] } },
{ "type": "Feature", "properties": { "NAME": "Manet Community Health Center", "ADDRESS": "1 Washington Street", "MUNICIPALITY": "Taunton ", "GEOG_MUNI": "TAUNTON", "ZIP_CODE": "02780", "PHONE": "(508) 822-5500", "WEBSITE": "https://www.manetchc.org/", "SERVICES": "Primary Care", "MAD_ID": "2687709", "OBJECTID": 38 }, "geometry": { "type": "Point", "coordinates": [ -71.098604422563227, 41.901561414597964 ] } },
{ "type": "Feature", "properties": { "NAME": "Caring Health Center – Richard E. Neal Complex", "ADDRESS": "1049 Main Street", "MUNICIPALITY": "Springfield ", "GEOG_MUNI": "SPRINGFIELD", "ZIP_CODE": "01103", "PHONE": "(413) 739-1100", "WEBSITE": "https://www.caringhealth.org", "SERVICES": "Dental, Primary Care", "MAD_ID": "4189790", "OBJECTID": 39 }, "geometry": { "type": "Point", "coordinates": [ -72.584782925721967, 42.099714425582604 ] } },
{ "type": "Feature", "properties": { "NAME": "NEW Health – Charlestown", "ADDRESS": "15 Tufts Street", "MUNICIPALITY": "Boston ", "GEOG_MUNI": "BOSTON", "ZIP_CODE": "02129", "PHONE": "(857) 238-1100", "WEBSITE": "https://newhealthcharlestown.org/", "SERVICES": "Dental, Eye, Primary Care", "MAD_ID": "35424161", "OBJECTID": 40 }, "geometry": { "type": "Point", "coordinates": [ -71.056808408916055, 42.377877322230503 ] } },
{ "type": "Feature", "properties": { "NAME": "Edward M Kennedy Community Health Center- Milford", "ADDRESS": "42 Cape Road", "MUNICIPALITY": "Milford ", "GEOG_MUNI": "MILFORD", "ZIP_CODE": "01757", "PHONE": "(800) 853-2288", "WEBSITE": "https://www.edwardmkennedychc.org", "SERVICES": "Primary Care", "MAD_ID": "1681610", "OBJECTID": 41 }, "geometry": { "type": "Point", "coordinates": [ -71.519619771821681, 42.127308384849215 ] } },
{ "type": "Feature", "properties": { "NAME": "Brockton Neighborhood Health Center", "ADDRESS": "160 Pleasant Street", "MUNICIPALITY": "Brockton ", "GEOG_MUNI": "BROCKTON", "ZIP_CODE": "02301", "PHONE": "(508) 559-6699", "WEBSITE": "https://www.bnhc.org", "SERVICES": "Primary Care", "MAD_ID": "3276861", "OBJECTID": 42 }, "geometry": { "type": "Point", "coordinates": [ -71.024547936367071, 42.084927377068233 ] } },
{ "type": "Feature", "properties": { "NAME": "CHP North Adams Family Medical Center", "ADDRESS": "71 Hospital Avenue", "MUNICIPALITY": "North Adams ", "GEOG_MUNI": "NORTH ADAMS", "ZIP_CODE": "01247", "PHONE": "(413) 644-4088", "WEBSITE": "https://www.chpberkshires.org", "SERVICES": "Primary Care", "MAD_ID": "678142", "OBJECTID": 43 }, "geometry": { "type": "Point", "coordinates": [ -73.109190216180508, 42.706899329344644 ] } },
{ "type": "Feature", "properties": { "NAME": "Charles River Community Health – Brighton", "ADDRESS": "495 Western Avenue", "MUNICIPALITY": "Brighton ", "GEOG_MUNI": "BOSTON", "ZIP_CODE": "02135", "PHONE": "(617) 783-0500", "WEBSITE": "https://www.charlesriverhealth.org/", "SERVICES": "Dental, Eye, Primary Care", "MAD_ID": "35148216", "OBJECTID": 44 }, "geometry": { "type": "Point", "coordinates": [ -71.144000381207121, 42.36202832803027 ] } },
{ "type": "Feature", "properties": { "NAME": "Community Health Center of Franklin County", "ADDRESS": "119 New Athol Road", "MUNICIPALITY": "Orange ", "GEOG_MUNI": "ORANGE", "ZIP_CODE": "01364", "PHONE": "(413) 325-8500", "WEBSITE": "https://www.chcfc.org", "SERVICES": "Dental, Primary Care", "MAD_ID": "1065644", "OBJECTID": 45 }, "geometry": { "type": "Point", "coordinates": [ -72.264194000454012, 42.584391322982619 ] } },
{ "type": "Feature", "properties": { "NAME": "NeighorHealth – Winthrop", "ADDRESS": "17 Main Street", "MUNICIPALITY": "Winthrop ", "GEOG_MUNI": "WINTHROP", "ZIP_CODE": "02152", "PHONE": "(617) 568-4840", "WEBSITE": "https://www.neighborhealth.com/en/", "SERVICES": "Primary Care", "MAD_ID": "4452044", "OBJECTID": 46 }, "geometry": { "type": "Point", "coordinates": [ -70.993254929540797, 42.382224319379112 ] } },
{ "type": "Feature", "properties": { "NAME": "South Boston Health/Seaport", "ADDRESS": "505 Congress Street", "MUNICIPALITY": "Boston ", "GEOG_MUNI": "BOSTON", "ZIP_CODE": "02210", "PHONE": "(617) 269-7500", "WEBSITE": "https://www.sbchc.org", "SERVICES": "Primary Care", "MAD_ID": "35344584", "OBJECTID": 47 }, "geometry": { "type": "Point", "coordinates": [ -71.041053915826012, 42.347952327414539 ] } },
{ "type": "Feature", "properties": { "NAME": "CHP Berkshire Pediatrics", "ADDRESS": "777 North Street", "MUNICIPALITY": "Pittsfield ", "GEOG_MUNI": "PITTSFIELD", "ZIP_CODE": "01201", "PHONE": "(413) 499-8531", "WEBSITE": "https://www.chpberkshires.org", "SERVICES": "Primary Care", "MAD_ID": "186260", "OBJECTID": 48 }, "geometry": { "type": "Point", "coordinates": [ -73.248942186553506, 42.46062338043803 ] } },
{ "type": "Feature", "properties": { "NAME": "Hilltown: John P. Musante Health Center", "ADDRESS": "70 Boltwood Walk", "MUNICIPALITY": "Amherst ", "GEOG_MUNI": "AMHERST", "ZIP_CODE": "01002", "PHONE": "(413) 238-5511", "WEBSITE": "https://www.hchcweb.org/", "SERVICES": "Primary Care", "MAD_ID": "758321", "OBJECTID": 49 }, "geometry": { "type": "Point", "coordinates": [ -72.518394430220397, 42.376914370760154 ] } },
{ "type": "Feature", "properties": { "NAME": "CHP Pittsfield Neighborhood Dental Center", "ADDRESS": "510 North Street", "MUNICIPALITY": "Pittsfield ", "GEOG_MUNI": "PITTSFIELD", "ZIP_CODE": "01201", "PHONE": "(413) 447-2781", "WEBSITE": "https://www.chpberkshires.org", "SERVICES": "Dental", "MAD_ID": "193776", "OBJECTID": 50 }, "geometry": { "type": "Point", "coordinates": [ -73.251084186185849, 42.455511381474516 ] } },
{ "type": "Feature", "properties": { "NAME": "Greater Roslindale Medical & Dental Center", "ADDRESS": "4199 Washington Street", "MUNICIPALITY": "Roslindale ", "GEOG_MUNI": "BOSTON", "ZIP_CODE": "02131", "PHONE": "(617) 323-4440", "WEBSITE": "https://www.roslindale.org", "SERVICES": "Dental, Primary Care", "MAD_ID": "35145151", "OBJECTID": 51 }, "geometry": { "type": "Point", "coordinates": [ -71.127750890893111, 42.287148341749351 ] } },
{ "type": "Feature", "properties": { "NAME": "CHP Administration Office", "ADDRESS": "444 Stockbridge Road", "MUNICIPALITY": "Great Barrington ", "GEOG_MUNI": "GREAT BARRINGTON", "ZIP_CODE": "01230", "PHONE": "(413) 528-9311", "WEBSITE": "https://www.chpberkshires.org", "SERVICES": "Administration Only", "MAD_ID": "4259888", "OBJECTID": 52 }, "geometry": { "type": "Point", "coordinates": [ -73.342357671669305, 42.219432429208133 ] } },
{ "type": "Feature", "properties": { "NAME": "CHP North Adams Family Dental Center", "ADDRESS": "71 Hospital Avenue", "MUNICIPALITY": "North Adams ", "GEOG_MUNI": "NORTH ADAMS", "ZIP_CODE": "01247", "PHONE": "(413) 644-4088", "WEBSITE": "https://www.chpberkshires.org", "SERVICES": "Dental", "MAD_ID": "678142", "OBJECTID": 53 }, "geometry": { "type": "Point", "coordinates": [ -73.109190216180508, 42.706899329344644 ] } },
{ "type": "Feature", "properties": { "NAME": "Manet Community Health Center at Attleboro", "ADDRESS": "8 North Main Street", "MUNICIPALITY": "Attleboro ", "GEOG_MUNI": "ATTLEBORO", "ZIP_CODE": "02703", "PHONE": "(508) 205-4600", "WEBSITE": "https://www.manetchc.org", "SERVICES": "Primary Care", "MAD_ID": "2948261", "OBJECTID": 54 }, "geometry": { "type": "Point", "coordinates": [ -71.284481359328595, 41.944545412256083 ] } },
{ "type": "Feature", "properties": { "NAME": "Haverhill Family Health Center", "ADDRESS": "755 Main Street", "MUNICIPALITY": "Haverhill ", "GEOG_MUNI": "HAVERHILL", "ZIP_CODE": "01830", "PHONE": "(978) 686-0090", "WEBSITE": "https://glfhc.org/", "SERVICES": "Primary Care", "MAD_ID": "4323760", "OBJECTID": 55 }, "geometry": { "type": "Point", "coordinates": [ -71.087529874131363, 42.797817243901385 ] } },
{ "type": "Feature", "properties": { "NAME": "Codman Square Health Center", "ADDRESS": "637 Washington Street", "MUNICIPALITY": "Boston ", "GEOG_MUNI": "BOSTON", "ZIP_CODE": "02124", "PHONE": "(617) 825-9660", "WEBSITE": "https://www.codman.org", "SERVICES": "Dental, Eye, Primary Care", "MAD_ID": "35156214", "OBJECTID": 56 }, "geometry": { "type": "Point", "coordinates": [ -71.072013909053695, 42.289371339546257 ] } },
{ "type": "Feature", "properties": { "NAME": "CHP Great Barrington Family Dental Center", "ADDRESS": "444 Stockbridge Road", "MUNICIPALITY": "Great Barrington ", "GEOG_MUNI": "GREAT BARRINGTON", "ZIP_CODE": "01230", "PHONE": "(413) 528-5565", "WEBSITE": "https://www.chpberkshires.org", "SERVICES": "Dental", "MAD_ID": "4259888", "OBJECTID": 57 }, "geometry": { "type": "Point", "coordinates": [ -73.342357671669305, 42.219432429208133 ] } },
{ "type": "Feature", "properties": { "NAME": "CHP Great Barrington Health Center", "ADDRESS": "444 Stockbridge Road", "MUNICIPALITY": "Great Barrington ", "GEOG_MUNI": "GREAT BARRINGTON", "ZIP_CODE": "01230", "PHONE": "(413) 528-8580", "WEBSITE": "https://www.chpberkshires.org", "SERVICES": "Eye, Primary Care", "MAD_ID": "4259888", "OBJECTID": 58 }, "geometry": { "type": "Point", "coordinates": [ -73.342357671669305, 42.219432429208133 ] } },
{ "type": "Feature", "properties": { "NAME": "HealthFirst Family Care Center", "ADDRESS": "387 Quarry Street", "MUNICIPALITY": "Fall River ", "GEOG_MUNI": "FALL RIVER", "ZIP_CODE": "02723", "PHONE": "(508) 679-8111", "WEBSITE": "https://www.healthfirstfr.org", "SERVICES": "Dental, Primary Care", "MAD_ID": "3932568", "OBJECTID": 59 }, "geometry": { "type": "Point", "coordinates": [ -71.140202420739257, 41.693301456071602 ] } },
{ "type": "Feature", "properties": { "NAME": "Massachusetts League of Community Health Centers", "ADDRESS": "40 Court Street", "MUNICIPALITY": "Boston ", "GEOG_MUNI": "BOSTON", "ZIP_CODE": "02108", "PHONE": "(617) 426-2225", "WEBSITE": "https://www.massleague.org", "SERVICES": "Administration Only", "MAD_ID": "35043809", "OBJECTID": 60 }, "geometry": { "type": "Point", "coordinates": [ -71.05932840917977, 42.359076325883095 ] } },
{ "type": "Feature", "properties": { "NAME": "Harvard Street Neighborhood Health Center", "ADDRESS": "632 Blue Hill Avenue", "MUNICIPALITY": "Boston ", "GEOG_MUNI": "BOSTON", "ZIP_CODE": "02121", "PHONE": "(617) 825-3400", "WEBSITE": "https://www.harvardstreet.org", "SERVICES": "Dental, Primary Care", "MAD_ID": "35377684", "OBJECTID": 61 }, "geometry": { "type": "Point", "coordinates": [ -71.085068404003223, 42.3026103374428 ] } },
{ "type": "Feature", "properties": { "NAME": "Holyoke Health Center", "ADDRESS": "230 Maple Street", "MUNICIPALITY": "Holyoke ", "GEOG_MUNI": "HOLYOKE", "ZIP_CODE": "01040", "PHONE": "(413) 420-2200", "WEBSITE": "https://www.hhcinc.org", "SERVICES": "Dental, Primary Care", "MAD_ID": "231545", "OBJECTID": 62 }, "geometry": { "type": "Point", "coordinates": [ -72.608353911406027, 42.207174405973255 ] } },
{ "type": "Feature", "properties": { "NAME": "Holyoke Health Dental Clinic – Western Massachusetts Hospital", "ADDRESS": "91 East Mountain Road", "MUNICIPALITY": "Westfield ", "GEOG_MUNI": "WESTFIELD", "ZIP_CODE": "01085", "PHONE": "(413) 420-6260", "WEBSITE": "https://www.hhcinc.org", "SERVICES": "Dental", "MAD_ID": "979435", "OBJECTID": 63 }, "geometry": { "type": "Point", "coordinates": [ -72.700356387347753, 42.111567427283035 ] } },
{ "type": "Feature", "properties": { "NAME": "Harbor Health: Geiger Gibson Community Health Center", "ADDRESS": "250 Mount Vernon Street", "MUNICIPALITY": "Boston ", "GEOG_MUNI": "BOSTON", "ZIP_CODE": "02125", "PHONE": "(617) 288-1140", "WEBSITE": "https://www.hhsi.us", "SERVICES": "Dental, Primary Care", "MAD_ID": "35158016", "OBJECTID": 64 }, "geometry": { "type": "Point", "coordinates": [ -71.046111915815189, 42.319449332996335 ] } },
{ "type": "Feature", "properties": { "NAME": "New Bedford  Community Health", "ADDRESS": "874 Purchase Street", "MUNICIPALITY": "New Bedford ", "GEOG_MUNI": "NEW BEDFORD", "ZIP_CODE": "02740", "PHONE": "(508) 992-6553", "WEBSITE": "https://www.gnbchc.org", "SERVICES": "Dental, Eye", "MAD_ID": "4082231", "OBJECTID": 65 }, "geometry": { "type": "Point", "coordinates": [ -70.925682993962909, 41.636223460378901 ] } },
{ "type": "Feature", "properties": { "NAME": "North Shore Community Health: Gloucester Family Health Center", "ADDRESS": "302 Washington Street", "MUNICIPALITY": "Gloucester ", "GEOG_MUNI": "GLOUCESTER", "ZIP_CODE": "01930", "PHONE": "(978) 282-8899", "WEBSITE": "https://www.nschi.org", "SERVICES": "Dental, Primary Care", "MAD_ID": "3390915", "OBJECTID": 66 }, "geometry": { "type": "Point", "coordinates": [ -70.680604018304223, 42.626430263218978 ] } },
{ "type": "Feature", "properties": { "NAME": "Greater Lawrence Family Health Center, Inc.", "ADDRESS": "34 Haverhill Street", "MUNICIPALITY": "Lawrence ", "GEOG_MUNI": "LAWRENCE", "ZIP_CODE": "01841", "PHONE": "(978) 686-0090", "WEBSITE": "https://www.glfhc.org", "SERVICES": "Primary Care", "MAD_ID": "2111183", "OBJECTID": 67 }, "geometry": { "type": "Point", "coordinates": [ -71.151974358006967, 42.711849262142557 ] } },
{ "type": "Feature", "properties": { "NAME": "Edward M Kennedy Community Health Center – Worcester", "ADDRESS": "19 Tacoma Street", "MUNICIPALITY": "Worcester ", "GEOG_MUNI": "WORCESTER", "ZIP_CODE": "01605", "PHONE": "(508) 852-1805", "WEBSITE": "https://www.kennedychc.org/", "SERVICES": "Dental, Eye, Primary Care", "MAD_ID": "1403616", "OBJECTID": 68 }, "geometry": { "type": "Point", "coordinates": [ -71.766125180777266, 42.302313359603581 ] } },
{ "type": "Feature", "properties": { "NAME": "Edward M Kennedy Community Health Center", "ADDRESS": "650 Lincoln Street", "MUNICIPALITY": "Worcester ", "GEOG_MUNI": "WORCESTER", "ZIP_CODE": "01605", "PHONE": "(800) 853-2288", "WEBSITE": "https://www.kennedychc.org/", "SERVICES": "Administration Only", "MAD_ID": "1380451", "OBJECTID": 69 }, "geometry": { "type": "Point", "coordinates": [ -71.764055181690637, 42.298380360281932 ] } },
{ "type": "Feature", "properties": { "NAME": "Haverhill Family Health Center", "ADDRESS": "150 Park Street", "MUNICIPALITY": "Lawrence ", "GEOG_MUNI": "LAWRENCE", "ZIP_CODE": "01841", "PHONE": "(978) 685-1770", "WEBSITE": "https://www.glfhc.org", "SERVICES": "Primary Care", "MAD_ID": "2117452", "OBJECTID": 70 }, "geometry": { "type": "Point", "coordinates": [ -71.166158353096563, 42.715881261842092 ] } },
{ "type": "Feature", "properties": { "NAME": "Community Health Connections: Greater Gardner Community Health Center", "ADDRESS": "175 Connors Street", "MUNICIPALITY": "Gardner ", "GEOG_MUNI": "GARDNER", "ZIP_CODE": "01440", "PHONE": "(978) 878-8100", "WEBSITE": "https://www.chcfhc.org", "SERVICES": "Dental", "MAD_ID": "1102015", "OBJECTID": 71 }, "geometry": { "type": "Point", "coordinates": [ -71.997132588675555, 42.573060316096829 ] } },
{ "type": "Feature", "properties": { "NAME": "Caring Health Center", "ADDRESS": "417 Liberty Street", "MUNICIPALITY": "Springfield ", "GEOG_MUNI": "SPRINGFIELD", "ZIP_CODE": "01104", "PHONE": "(413) 739-1100", "WEBSITE": "https://www.caringhealth.org", "SERVICES": "Primary Care", "MAD_ID": "607972", "OBJECTID": 72 }, "geometry": { "type": "Point", "coordinates": [ -72.585300424651336, 42.114366422813255 ] } },
{ "type": "Feature", "properties": { "NAME": "Market Square Family Health Center", "ADDRESS": "29 Market Square", "MUNICIPALITY": "Lynn ", "GEOG_MUNI": "LYNN", "ZIP_CODE": "01905", "PHONE": "(781) 596-3500", "WEBSITE": "https://www.lchcnet.org", "SERVICES": "Primary Care", "MAD_ID": "3784807", "OBJECTID": 73 }, "geometry": { "type": "Point", "coordinates": [ -70.964162434413808, 42.463089303107729 ] } },
{ "type": "Feature", "properties": { "NAME": "Market Square Family Health Services at Western Avenue", "ADDRESS": "694 Western Avenue", "MUNICIPALITY": "Lynn ", "GEOG_MUNI": "LYNN", "ZIP_CODE": "01905", "PHONE": "(781) 595-7348", "WEBSITE": "https://www.lchcnet.org", "SERVICES": "Primary Care", "MAD_ID": "3789345", "OBJECTID": 74 }, "geometry": { "type": "Point", "coordinates": [ -70.964090434415027, 42.46347630303206 ] } },
{ "type": "Feature", "properties": { "NAME": "Manet Community Health Center at Snug Harbor", "ADDRESS": "9 Bicknell Street", "MUNICIPALITY": "Quincy ", "GEOG_MUNI": "QUINCY", "ZIP_CODE": "02169", "PHONE": "(617) 471-4715", "WEBSITE": "https://www.manetchc.org", "SERVICES": "Primary Care", "MAD_ID": "4021128", "OBJECTID": 75 }, "geometry": { "type": "Point", "coordinates": [ -70.965872446029252, 42.252210343251178 ] } },
{ "type": "Feature", "properties": { "NAME": "Methuen Family Health Center", "ADDRESS": "70 East Street", "MUNICIPALITY": "Methuen ", "GEOG_MUNI": "METHUEN", "ZIP_CODE": "01844", "PHONE": "(978) 683-3491", "WEBSITE": "https://www.glfhc.org/", "SERVICES": "Primary Care", "MAD_ID": "2067363", "OBJECTID": 76 }, "geometry": { "type": "Point", "coordinates": [ -71.168403851650226, 42.727770259677968 ] } },
{ "type": "Feature", "properties": { "NAME": "Lowell Community Health Center", "ADDRESS": "161 Jackson Street", "MUNICIPALITY": "Lowell ", "GEOG_MUNI": "LOWELL", "ZIP_CODE": "01852", "PHONE": "(978) 937-9700", "WEBSITE": "https://www.lchealth.org", "SERVICES": "Primary Care", "MAD_ID": "1982310", "OBJECTID": 77 }, "geometry": { "type": "Point", "coordinates": [ -71.310374310018105, 42.642234280384052 ] } },
{ "type": "Feature", "properties": { "NAME": "Lynn Community Health Center", "ADDRESS": "280 Union Street", "MUNICIPALITY": "Lynn ", "GEOG_MUNI": "LYNN", "ZIP_CODE": "01901", "PHONE": "(781) 581-3900", "WEBSITE": "https://www.lchcnet.org", "SERVICES": "Primary Care", "MAD_ID": "3796514", "OBJECTID": 78 }, "geometry": { "type": "Point", "coordinates": [ -70.943115941226679, 42.464934302088373 ] } },
{ "type": "Feature", "properties": { "NAME": "Lynn Community Health Center", "ADDRESS": "269 Union Street", "MUNICIPALITY": "Lynn ", "GEOG_MUNI": "LYNN", "ZIP_CODE": "01901", "PHONE": "(781) 581-3900", "WEBSITE": "https://www.lchcnet.org", "SERVICES": "Dental, Primary Care", "MAD_ID": "3787341", "OBJECTID": 79 }, "geometry": { "type": "Point", "coordinates": [ -70.943624441041166, 42.465249302044754 ] } },
{ "type": "Feature", "properties": { "NAME": "Manet Community Health Center", "ADDRESS": "110 West Squantum Street", "MUNICIPALITY": "Quincy ", "GEOG_MUNI": "QUINCY", "ZIP_CODE": "02171", "PHONE": "(617) 376-3030", "WEBSITE": "https://www.manetchc.org", "SERVICES": "Eye, Primary Care", "MAD_ID": "4026067", "OBJECTID": 80 }, "geometry": { "type": "Point", "coordinates": [ -71.030807423548538, 42.272541341438867 ] } },
{ "type": "Feature", "properties": { "NAME": "Manet Community Health Center at Hull", "ADDRESS": "180 George Washington Blvd", "MUNICIPALITY": "Hull ", "GEOG_MUNI": "HULL", "ZIP_CODE": "02045", "PHONE": "(781) 925-4550", "WEBSITE": "https://www.manetchc.org", "SERVICES": "Primary Care", "MAD_ID": "3450984", "OBJECTID": 81 }, "geometry": { "type": "Point", "coordinates": [ -70.860612979961402, 42.263037337859039 ] } },
{ "type": "Feature", "properties": { "NAME": "Manet Community Health Center at Hough’s Neck", "ADDRESS": "1193 Sea Street", "MUNICIPALITY": "Quincy ", "GEOG_MUNI": "QUINCY", "ZIP_CODE": "02169", "PHONE": "(617) 471-8683", "WEBSITE": "https://www.manetchc.org", "SERVICES": "Primary Care", "MAD_ID": "4015199", "OBJECTID": 82 }, "geometry": { "type": "Point", "coordinates": [ -70.952628949422802, 42.268806339668316 ] } },
{ "type": "Feature", "properties": { "NAME": "MGH Chelsea HealthCare Center – 151 Everett Ave", "ADDRESS": "151 Everett Avenue", "MUNICIPALITY": "Chelsea ", "GEOG_MUNI": "CHELSEA", "ZIP_CODE": "02150", "PHONE": "(617) 884-8300", "WEBSITE": "https://www.massgeneral.org/primarycare/locations/default.aspx", "SERVICES": "Primary Care", "MAD_ID": "3686406", "OBJECTID": 83 }, "geometry": { "type": "Point", "coordinates": [ -71.039204413639595, 42.396120318204431 ] } },
{ "type": "Feature", "properties": { "NAME": "MGH Chelsea HealthCare Center – 100 Everett Ave", "ADDRESS": "100 Everett Avenue", "MUNICIPALITY": "Chelsea ", "GEOG_MUNI": "CHELSEA", "ZIP_CODE": "02150", "PHONE": "(617) 887-4600", "WEBSITE": "https://www.massgeneral.org/primarycare/locations/default.aspx", "SERVICES": "Primary Care", "MAD_ID": "3689812", "OBJECTID": 84 }, "geometry": { "type": "Point", "coordinates": [ -71.040158413427534, 42.394374318566371 ] } },
{ "type": "Feature", "properties": { "NAME": "CHP Pittsfield Neighborhood Health Center", "ADDRESS": "510 North Street", "MUNICIPALITY": "Pittsfield ", "GEOG_MUNI": "PITTSFIELD", "ZIP_CODE": "01201", "PHONE": "(413) 447-2351", "WEBSITE": "https://www.chpberkshires.org", "SERVICES": "Eye, Primary Care", "MAD_ID": "193776", "OBJECTID": 85 }, "geometry": { "type": "Point", "coordinates": [ -73.251084186185849, 42.455511381474516 ] } },
{ "type": "Feature", "properties": { "NAME": "MGH Revere HealthCare Center – Ocean Ave", "ADDRESS": "300 Ocean Avenue", "MUNICIPALITY": "Revere ", "GEOG_MUNI": "REVERE", "ZIP_CODE": "02151", "PHONE": "(781) 485-6000", "WEBSITE": "https://www.massgeneral.org/primarycare/locations/default.aspx", "SERVICES": "Primary Care", "MAD_ID": "3534593", "OBJECTID": 86 }, "geometry": { "type": "Point", "coordinates": [ -70.992233428372913, 42.408171314419505 ] } },
{ "type": "Feature", "properties": { "NAME": "Harbor Health: Daniel Driscoll – Neponset Health Center", "ADDRESS": "398 Neponset Avenue", "MUNICIPALITY": "Boston ", "GEOG_MUNI": "BOSTON", "ZIP_CODE": "02122", "PHONE": "(617) 282-3200", "WEBSITE": "https://www.hhsi.us", "SERVICES": "Eye, Primary Care", "MAD_ID": "35100881", "OBJECTID": 87 }, "geometry": { "type": "Point", "coordinates": [ -71.044091418370968, 42.286716339161998 ] } },
{ "type": "Feature", "properties": { "NAME": "MGH Revere HealthCare Center – Broadway", "ADDRESS": "300 Broadway", "MUNICIPALITY": "Revere ", "GEOG_MUNI": "REVERE", "ZIP_CODE": "02151", "PHONE": "(781) 485-1000", "WEBSITE": "https://www.massgeneral.org/primarycare/locations/default.aspx", "SERVICES": "Primary Care", "MAD_ID": "3532944", "OBJECTID": 88 }, "geometry": { "type": "Point", "coordinates": [ -71.013716421285807, 42.408657315011588 ] } },
{ "type": "Feature", "properties": { "NAME": "NEW Health – North End", "ADDRESS": "332 Hanover Street", "MUNICIPALITY": "Boston ", "GEOG_MUNI": "BOSTON", "ZIP_CODE": "02113", "PHONE": "(617) 643-8000", "WEBSITE": "https://northendwaterfronthealth.org/", "SERVICES": "Dental, Eye, Primary Care", "MAD_ID": "35341053", "OBJECTID": 89 }, "geometry": { "type": "Point", "coordinates": [ -71.053712410696122, 42.364728324629851 ] } },
{ "type": "Feature", "properties": { "NAME": "Outer Cape Health Services – Provincetown", "ADDRESS": "49 Harry Kemp Way", "MUNICIPALITY": "Provincetown ", "GEOG_MUNI": "PROVINCETOWN", "ZIP_CODE": "02657", "PHONE": "(508) 487-9395", "WEBSITE": "https://www.outercape.org", "SERVICES": "Eye, Primary Care", "MAD_ID": "1901336", "OBJECTID": 90 }, "geometry": { "type": "Point", "coordinates": [ -70.183718713721547, 42.05817035612251 ] } },
{ "type": "Feature", "properties": { "NAME": "North Shore Community Health: Salem Family Health Center", "ADDRESS": "47 Congress Street", "MUNICIPALITY": "Salem ", "GEOG_MUNI": "SALEM", "ZIP_CODE": "01970", "PHONE": "(978) 744-8388", "WEBSITE": "https://www.nschi.org", "SERVICES": "Dental, Primary Care", "MAD_ID": "3882259", "OBJECTID": 91 }, "geometry": { "type": "Point", "coordinates": [ -70.886726456769267, 42.516765290476698 ] } },
{ "type": "Feature", "properties": { "NAME": "North Shore Community Health: Peabody Family Health Center", "ADDRESS": "89 Foster Street", "MUNICIPALITY": "Peabody ", "GEOG_MUNI": "PEABODY", "ZIP_CODE": "01960", "PHONE": "(978) 532-4903", "WEBSITE": "https://www.nschi.org", "SERVICES": "Dental, Primary Care", "MAD_ID": "3718913", "OBJECTID": 92 }, "geometry": { "type": "Point", "coordinates": [ -70.930470942016669, 42.522948290696242 ] } },
{ "type": "Feature", "properties": { "NAME": "Sidney Borum Jr. Health Center", "ADDRESS": "142 Berkeley Street", "MUNICIPALITY": "Boston ", "GEOG_MUNI": "BOSTON", "ZIP_CODE": "02116", "PHONE": "(617) 457-8140", "WEBSITE": "https://www.sidneyborum.org/", "SERVICES": "Primary Care", "MAD_ID": "35157823", "OBJECTID": 93 }, "geometry": { "type": "Point", "coordinates": [ -71.072099405580545, 42.348834328237359 ] } },
{ "type": "Feature", "properties": { "NAME": "Family Health Center of Worcester, Inc.", "ADDRESS": "26 Queen Street", "MUNICIPALITY": "Worcester", "GEOG_MUNI": "WORCESTER", "ZIP_CODE": "01610", "PHONE": "(508) 860-7700", "WEBSITE": "https://fhcw.org/", "SERVICES": "Dental, Primary Care", "MAD_ID": "1391618", "OBJECTID": 94 }, "geometry": { "type": "Point", "coordinates": [ -71.814971796365555, 42.259236994403523 ] } },
{ "type": "Feature", "properties": { "NAME": "Family Health At Webster Square", "ADDRESS": "645 Park Avenue", "MUNICIPALITY": "Worcester", "GEOG_MUNI": "WORCESTER", "ZIP_CODE": "01603", "PHONE": "(508) 792-7580", "WEBSITE": "https://fhcw.org/", "SERVICES": "Primary Care", "MAD_ID": "1402079", "OBJECTID": 95 }, "geometry": { "type": "Point", "coordinates": [ -71.804572451994986, 42.259427852251463 ] } },
{ "type": "Feature", "properties": { "NAME": "Island Health Care", "ADDRESS": "245 Edgartown-Vineyard Haven Road", "MUNICIPALITY": "Edgartown", "GEOG_MUNI": "EDGARTOWN", "ZIP_CODE": "02539", "PHONE": "(508) 939-9358", "WEBSITE": "https://www.ihimv.org/", "SERVICES": "Primary Care", "MAD_ID": "1731714", "OBJECTID": 96 }, "geometry": { "type": "Point", "coordinates": [ -70.530091565196201, 41.395512293705245 ] } },
{ "type": "Feature", "properties": { "NAME": "Island Health Care Dental Center", "ADDRESS": "1 Mariner’s Landing", "MUNICIPALITY": "Edgartown", "GEOG_MUNI": "EDGARTOWN", "ZIP_CODE": "02539", "PHONE": "(508) 939-9358", "WEBSITE": "https://www.ihimv.org/dental-center/", "SERVICES": "Dental", "MAD_ID": "4332409", "OBJECTID": 97 }, "geometry": { "type": "Point", "coordinates": [ -70.53177068006616, 41.394954780803459 ] } },
{ "type": "Feature", "properties": { "NAME": "Lowell Community Health Center's Mental Health Center", "ADDRESS": "135 Jackson Street", "MUNICIPALITY": "Lowell ", "GEOG_MUNI": "LOWELL", "ZIP_CODE": "01852", "PHONE": "(978) 441-1700", "WEBSITE": "https://www.lchealth.org", "SERVICES": "Primary Care", "MAD_ID": "1991151", "OBJECTID": 98 }, "geometry": { "type": "Point", "coordinates": [ -71.310451097870398, 42.642184897811276 ] } },
{ "type": "Feature", "properties": { "NAME": "CHP Mobile Health Units", "ADDRESS": "444 Stockbridge Road", "MUNICIPALITY": "Great Barrington ", "GEOG_MUNI": "GREAT BARRINGTON", "ZIP_CODE": "01230", "PHONE": "(413) 528-0457", "WEBSITE": "https://www.chpberkshires.org", "SERVICES": null, "MAD_ID": "4259888", "OBJECTID": 99 }, "geometry": { "type": "Point", "coordinates": [ -73.342357671669305, 42.219432429208133 ] } },
{ "type": "Feature", "properties": { "NAME": "CHP Family Services", "ADDRESS": "442 Stockbridge Road", "MUNICIPALITY": "Great Barrington ", "GEOG_MUNI": "GREAT BARRINGTON", "ZIP_CODE": "01230", "PHONE": "(413) 528-0457", "WEBSITE": "https://www.chpberkshires.org", "SERVICES": null, "MAD_ID": "211004", "OBJECTID": 100 }, "geometry": { "type": "Point", "coordinates": [ -73.342357671669305, 42.219432429208133 ] } },
{ "type": "Feature", "properties": { "NAME": "MGH Charlestown HealthCare Center", "ADDRESS": "73 High Street", "MUNICIPALITY": "Charlestown ", "GEOG_MUNI": "BOSTON", "ZIP_CODE": "02129", "PHONE": "(617) 724-8135", "WEBSITE": "https://www.massgeneral.org/primarycare/locations/default.aspx", "SERVICES": "Primary Care", "MAD_ID": "35073462", "OBJECTID": 101 }, "geometry": { "type": "Point", "coordinates": [ -71.064251406512682, 42.37716632260333 ] } },
{ "type": "Feature", "properties": { "NAME": "Harbor Community Health Center – Hyannis", "ADDRESS": "30 Elm Avenue", "MUNICIPALITY": "Hyannis ", "GEOG_MUNI": "BARNSTABLE", "ZIP_CODE": "02601", "PHONE": "(508) 778-0300", "WEBSITE": "https://www.hhsi.us", "SERVICES": "Dental, Primary Care", "MAD_ID": "1224227", "OBJECTID": 102 }, "geometry": { "type": "Point", "coordinates": [ -70.282264203254968, 41.65525843690407 ] } },
{ "type": "Feature", "properties": { "NAME": "Mattapan Community Health Center", "ADDRESS": "1575 Blue Hill Avenue", "MUNICIPALITY": "Mattapan ", "GEOG_MUNI": "BOSTON", "ZIP_CODE": "02126", "PHONE": "(617) 296-0061", "WEBSITE": "https://www.mattapanchc.org", "SERVICES": "Dental, Primary Care", "MAD_ID": "35352776", "OBJECTID": 103 }, "geometry": { "type": "Point", "coordinates": [ -71.094027902962011, 42.269805343974355 ] } },
{ "type": "Feature", "properties": { "NAME": "Southern Jamaica Plain Health Center", "ADDRESS": "640 Centre Street", "MUNICIPALITY": "Jamaica Plain ", "GEOG_MUNI": "BOSTON", "ZIP_CODE": "02130", "PHONE": "(617) 983-4100", "WEBSITE": "https://www.brighamandwomens.org/sjphc", "SERVICES": "Primary Care", "MAD_ID": "35163039", "OBJECTID": 104 }, "geometry": { "type": "Point", "coordinates": [ -71.113346394104894, 42.31326633631862 ] } },
{ "type": "Feature", "properties": { "NAME": "Brookside Community Health Center", "ADDRESS": "3297 Washington Street", "MUNICIPALITY": "Jamaica Plain ", "GEOG_MUNI": "BOSTON", "ZIP_CODE": "02130", "PHONE": "(617) 522-4700", "WEBSITE": "https://www.brighamandwomens.org/brookside", "SERVICES": "Dental, Primary Care", "MAD_ID": "35144685", "OBJECTID": 105 }, "geometry": { "type": "Point", "coordinates": [ -71.103662397425097, 42.31081833647476 ] } },
{ "type": "Feature", "properties": { "NAME": "Community Health Center of Cape Cod – Buzzards Bay", "ADDRESS": "123 Waterhouse Road", "MUNICIPALITY": "Buzzards Bay ", "GEOG_MUNI": "BOURNE", "ZIP_CODE": "02532", "PHONE": "(508) 759-7920", "WEBSITE": "https://www.chcofcapecod.org", "SERVICES": "Primary Care", "MAD_ID": "9788", "OBJECTID": 106 }, "geometry": { "type": "Point", "coordinates": [ -70.585069100200911, 41.728401431969651 ] } },
{ "type": "Feature", "properties": { "NAME": "Caring Health Center", "ADDRESS": "860 Boston Road", "MUNICIPALITY": "Springfield ", "GEOG_MUNI": "SPRINGFIELD", "ZIP_CODE": "01103", "PHONE": "(413) 739-1100", "WEBSITE": "https://www.caringhealth.org", "SERVICES": "Primary Care", "MAD_ID": "569049", "OBJECTID": 107 }, "geometry": { "type": "Point", "coordinates": [ -72.51598244580758, 42.137667416019411 ] } },
{ "type": "Feature", "properties": { "NAME": "CHP Lee Family Practice", "ADDRESS": "11 Quarry Hill Road", "MUNICIPALITY": "Lee ", "GEOG_MUNI": "LEE", "ZIP_CODE": "02138", "PHONE": "(413) 243-0536", "WEBSITE": "https://www.chpberkshires.org", "SERVICES": "Eye, Primary Care", "MAD_ID": "644282", "OBJECTID": 108 }, "geometry": { "type": "Point", "coordinates": [ -73.253082196719717, 42.281649414297419 ] } },
{ "type": "Feature", "properties": { "NAME": "Harvard Street Adolescent Child Life Center", "ADDRESS": "895 Blue Hill Avenue", "MUNICIPALITY": "Boston ", "GEOG_MUNI": "BOSTON", "ZIP_CODE": "02121", "PHONE": "(617) 822-5510", "WEBSITE": "https://www.harvardstreet.org", "SERVICES": "Primary Care", "MAD_ID": "35344849", "OBJECTID": 109 }, "geometry": { "type": "Point", "coordinates": [ -71.088569403345986, 42.294123339169808 ] } },
{ "type": "Feature", "properties": { "NAME": "Greater Lawrence Family Health Center – South site", "ADDRESS": "73D Winthrop Avenue (Plaza 114)", "MUNICIPALITY": "Lawrence ", "GEOG_MUNI": "LAWRENCE", "ZIP_CODE": "01843", "PHONE": "(978) 686-3017", "WEBSITE": "https://www.glfhc.org", "SERVICES": "Primary Care", "MAD_ID": "2123656", "OBJECTID": 110 }, "geometry": { "type": "Point", "coordinates": [ -71.150543359805624, 42.689475266308314 ] } },
{ "type": "Feature", "properties": { "NAME": "Outer Cape Health Services – Wellfleet", "ADDRESS": "3130 Route 6", "MUNICIPALITY": "Wellfleet ", "GEOG_MUNI": "WELLFLEET", "ZIP_CODE": "02667", "PHONE": "(508) 349-3131", "WEBSITE": "https://www.outercape.org", "SERVICES": null, "MAD_ID": "1847447", "OBJECTID": 111 }, "geometry": { "type": "Point", "coordinates": [ -70.03089340879113, 41.946092087770573 ] } },
{ "type": "Feature", "properties": { "NAME": "Whittier Street Health Center at Quincy Commons", "ADDRESS": "278 Blue Hill Avenue", "MUNICIPALITY": "Boston ", "GEOG_MUNI": "BOSTON", "ZIP_CODE": "02119", "PHONE": "(617) 858-2550", "WEBSITE": "https://www.wshc.org", "SERVICES": "Primary Care", "MAD_ID": "35351824", "OBJECTID": 112 }, "geometry": { "type": "Point", "coordinates": [ -71.078457905468227, 42.314769334918118 ] } },
{ "type": "Feature", "properties": { "NAME": "Greater Lawrence Family Health Center – West site", "ADDRESS": "700 Essex Street", "MUNICIPALITY": "Lawrence ", "GEOG_MUNI": "LAWRENCE", "ZIP_CODE": "01840", "PHONE": "(978) 689-2400", "WEBSITE": "https://www.glfhc.org", "SERVICES": "Primary Care", "MAD_ID": "2119675", "OBJECTID": 113 }, "geometry": { "type": "Point", "coordinates": [ -71.172125351960048, 42.701940264658582 ] } },
{ "type": "Feature", "properties": { "NAME": "Community Health Connections: South Gardner Community Health & Urgent Care Center", "ADDRESS": "529 Timpany Boulevard", "MUNICIPALITY": "South Gardner ", "GEOG_MUNI": "GARDNER", "ZIP_CODE": "01440", "PHONE": "(978) 878-8100", "WEBSITE": "https://www.chcfhc.org", "SERVICES": "Dental, Primary Care", "MAD_ID": "4517459", "OBJECTID": 114 }, "geometry": { "type": "Point", "coordinates": [ -71.99387312719557, 42.553305786153665 ] } },
{ "type": "Feature", "properties": { "NAME": "Harbor Health Services Inc", "ADDRESS": "1135 Morton Street", "MUNICIPALITY": "Mattapan ", "GEOG_MUNI": "BOSTON", "ZIP_CODE": "02126", "PHONE": "(617) 533-2400", "WEBSITE": "https://www.hhsi.us", "SERVICES": "Administration Only", "MAD_ID": "35097656", "OBJECTID": 115 }, "geometry": { "type": "Point", "coordinates": [ -71.07488940889597, 42.275781342225706 ] } },
{ "type": "Feature", "properties": { "NAME": "Outer Cape- Harwich Port Health Center", "ADDRESS": "710 MA 28", "MUNICIPALITY": "Harwich ", "GEOG_MUNI": "HARWICH", "ZIP_CODE": "02645", "PHONE": "(508) 432-1400", "WEBSITE": "https://www.outercape.org/", "SERVICES": "Administration, Primary Care", "MAD_ID": "2162583", "OBJECTID": 116 }, "geometry": { "type": "Point", "coordinates": [ -70.060301775104861, 41.670657427235803 ] } },
{ "type": "Feature", "properties": { "NAME": "Greater Lawrence Family Health Center, Inc. (Methuen)", "ADDRESS": "401 Griffin Brook Road", "MUNICIPALITY": "Methuen ", "GEOG_MUNI": "METHUEN", "ZIP_CODE": "01844", "PHONE": "(978) 686-0090", "WEBSITE": "https://www.glfhc.org", "SERVICES": "Primary Care", "MAD_ID": "2063402", "OBJECTID": 117 }, "geometry": { "type": "Point", "coordinates": [ -71.236245831485704, 42.691275268741435 ] } },
{ "type": "Feature", "properties": { "NAME": "Community Health Center of Cape Cod – Centerville", "ADDRESS": "1185B Falmouth Road", "MUNICIPALITY": "Centerville ", "GEOG_MUNI": "BARNSTABLE", "ZIP_CODE": "02632", "PHONE": "(508) 759-7920", "WEBSITE": "https://www.chcofcapecod.org", "SERVICES": "Primary Care", "MAD_ID": "1254341", "OBJECTID": 118 }, "geometry": { "type": "Point", "coordinates": [ -70.330225187418506, 41.657877437848938 ] } },
{ "type": "Feature", "properties": { "NAME": "Holyoke Health Dental Clinic – Holyoke Soldiers’ Home", "ADDRESS": "110 Cherry Street", "MUNICIPALITY": "Westfield ", "GEOG_MUNI": "HOLYOKE", "ZIP_CODE": "01040", "PHONE": "(413) 420-6270", "WEBSITE": "https://www.hhcinc.org", "SERVICES": "Dental", "MAD_ID": "231545", "OBJECTID": 119 }, "geometry": { "type": "Point", "coordinates": [ -72.640470401453484, 42.198822408658145 ] } },
{ "type": "Feature", "properties": { "NAME": "Bowdoin Street Health Center", "ADDRESS": "230 Bowdoin Street", "MUNICIPALITY": "Boston ", "GEOG_MUNI": "BOSTON", "ZIP_CODE": "02122", "PHONE": "(617) 754-0100", "WEBSITE": "https://www.bidmc.org/locations/bowdoin-street-health-center", "SERVICES": "Eye, Primary Care", "MAD_ID": "35340978", "OBJECTID": 120 }, "geometry": { "type": "Point", "coordinates": [ -71.06776140949377, 42.3058863362672 ] } },
{ "type": "Feature", "properties": { "NAME": "CHP Barrington OB/GYN", "ADDRESS": "780 S Main Street", "MUNICIPALITY": "Great Barrington ", "GEOG_MUNI": "GREAT BARRINGTON", "ZIP_CODE": "01230", "PHONE": "(413) 528-1470", "WEBSITE": "https://www.chpberkshires.org", "SERVICES": "Primary Care", "MAD_ID": "209001", "OBJECTID": 121 }, "geometry": { "type": "Point", "coordinates": [ -73.363087490798705, 42.178302176391981 ] } },
{ "type": "Feature", "properties": { "NAME": "South Cove Community Health Center – Malden", "ADDRESS": "227 Commercial Street", "MUNICIPALITY": "Malden ", "GEOG_MUNI": "MALDEN", "ZIP_CODE": "02148", "PHONE": "(781) 912-2500", "WEBSITE": "https://www.scchc.org", "SERVICES": "Eye, Primary Care", "MAD_ID": "3035095", "OBJECTID": 122 }, "geometry": { "type": "Point", "coordinates": [ -71.076166657121036, 42.41799391476232 ] } },
{ "type": "Feature", "properties": { "NAME": "SSTAR South End Services", "ADDRESS": "1010 South Main Street", "MUNICIPALITY": "Fall River ", "GEOG_MUNI": "FALL RIVER", "ZIP_CODE": "02824", "PHONE": "(508) 675-1054", "WEBSITE": "https://www.sstar.org/site/primaryhealth.asp", "SERVICES": "Primary Care", "MAD_ID": "3950278", "OBJECTID": 123 }, "geometry": { "type": "Point", "coordinates": [ -71.165150412737987, 41.690781457347683 ] } },
{ "type": "Feature", "properties": { "NAME": "Lowell Community Health Center – Dental & Eye Care", "ADDRESS": "101 Jackson Street", "MUNICIPALITY": "Lowell ", "GEOG_MUNI": "LOWELL", "ZIP_CODE": "01852", "PHONE": "(978) 937-9700", "WEBSITE": "https://www.lchealth.org", "SERVICES": "Dental, Eye", "MAD_ID": null, "OBJECTID": 124 }, "geometry": { "type": "Point", "coordinates": [ -71.310507425077262, 42.642133200521691 ] } },
{ "type": "Feature", "properties": { "NAME": "Boston Health Care for the Homeless Program", "ADDRESS": "Jean Yawkey Place", "MUNICIPALITY": "Boston ", "GEOG_MUNI": "BOSTON", "ZIP_CODE": "02118", "PHONE": "(857) 654-1000", "WEBSITE": "https://www.bhchp.org", "SERVICES": "Dental, Primary Care", "MAD_ID": "35172853", "OBJECTID": 125 }, "geometry": { "type": "Point", "coordinates": [ -71.072703998971903, 42.333568402801482 ] } },
{ "type": "Feature", "properties": { "NAME": "CHA Windsor Street Health Center", "ADDRESS": "119 Windsor Street", "MUNICIPALITY": "Cambridge", "GEOG_MUNI": "CAMBRIDGE", "ZIP_CODE": "02139", "PHONE": "(617) 665-3600", "WEBSITE": "https://www.challiance.org/locations", "SERVICES": "Dental, Primary Care", "MAD_ID": "3622544", "OBJECTID": 126 }, "geometry": { "type": "Point", "coordinates": [ -71.096799525006347, 42.364692369228386 ] } },
{ "type": "Feature", "properties": { "NAME": "Chicopee Health Center", "ADDRESS": "505 Front Street", "MUNICIPALITY": "Chicopee", "GEOG_MUNI": "CHICOPEE", "ZIP_CODE": "01013", "PHONE": "(413) 420-2222", "WEBSITE": "https://hhcinc.org/", "SERVICES": "Dental, Primary Care", "MAD_ID": "114290", "OBJECTID": 127 }, "geometry": { "type": "Point", "coordinates": [ -72.597572555753445, 42.148706025479896 ] } },
{ "type": "Feature", "properties": { "NAME": "NeighborHealth – East Boston – Maverick Square", "ADDRESS": "20 Maverick Square", "MUNICIPALITY": "Boston", "GEOG_MUNI": "BOSTON", "ZIP_CODE": "02128", "PHONE": "(617) 569-5800", "WEBSITE": "https://www.neighborhealth.com/en/", "SERVICES": "Dental, Eye, Primary Care", "MAD_ID": "35341937", "OBJECTID": 128 }, "geometry": { "type": "Point", "coordinates": [ -71.039640418103929, 42.369606437761284 ] } },
{ "type": "Feature", "properties": { "NAME": "Hilltown: Huntington Health Center", "ADDRESS": "73 Russell Road", "MUNICIPALITY": "Huntington", "GEOG_MUNI": "HUNTINGTON", "ZIP_CODE": "01050", "PHONE": "(413) 667-3009", "WEBSITE": "https://www.hchcweb.org/", "SERVICES": "Dental, Primary Care", "MAD_ID": "640861", "OBJECTID": 129 }, "geometry": { "type": "Point", "coordinates": [ -72.870954446012959, 42.224409153184979 ] } },
{ "type": "Feature", "properties": { "NAME": "Charles River Community Health – Waltham", "ADDRESS": "43 Foundry Avenue", "MUNICIPALITY": "Waltham", "GEOG_MUNI": "WALTHAM", "ZIP_CODE": "02453", "PHONE": "(781) 693-3800", "WEBSITE": "https://www.charlesriverhealth.org/", "SERVICES": "Dental, Primary Care", "MAD_ID": "2831106", "OBJECTID": 130 }, "geometry": { "type": "Point", "coordinates": [ -71.218965317859968, 42.370457833706659 ] } },
{ "type": "Feature", "properties": { "NAME": "Community Health Connections: Leominster Community Health Center", "ADDRESS": "165 Mill Street", "MUNICIPALITY": "Leominster", "GEOG_MUNI": "LEOMINSTER", "ZIP_CODE": "01453", "PHONE": "(978) 878-8100", "WEBSITE": "https://chcfhc.org/", "SERVICES": "Dental, Eye, Primary Care", "MAD_ID": "1592452", "OBJECTID": 131 }, "geometry": { "type": "Point", "coordinates": [ -71.747541379672271, 42.532001081157851 ] } },
{ "type": "Feature", "properties": { "NAME": "Fenway Health", "ADDRESS": "1340 Boylston Street", "MUNICIPALITY": "Boston", "GEOG_MUNI": "BOSTON", "ZIP_CODE": "02115", "PHONE": "(617) 267-0900", "WEBSITE": "https://fenwayhealth.org/", "SERVICES": "Dental, Eye, Primary Care", "MAD_ID": "35352342", "OBJECTID": 132 }, "geometry": { "type": "Point", "coordinates": [ -71.098680686638502, 42.344047297521421 ] } },
{ "type": "Feature", "properties": { "NAME": "Community Health Connections: Fitchburg Community Health Center", "ADDRESS": "326 Nichols Road", "MUNICIPALITY": "Fitchburg", "GEOG_MUNI": "FITCHBURG", "ZIP_CODE": "01420", "PHONE": "(978) 878-8100", "WEBSITE": "https://chcfhc.org/", "SERVICES": "Dental, Eye, Primary Care", "MAD_ID": "1358617", "OBJECTID": 133 }, "geometry": { "type": "Point", "coordinates": [ -71.807630407443213, 42.597422820158776 ] } },
{ "type": "Feature", "properties": { "NAME": "Edward M Kennedy Community Health Center – Framingham", "ADDRESS": "354 Waverly Street", "MUNICIPALITY": "Framingham", "GEOG_MUNI": "FRAMINGHAM", "ZIP_CODE": "01702", "PHONE": "(508) 270-5700", "WEBSITE": "https://www.kennedychc.org/", "SERVICES": "Dental, Eye, Primary Care", "MAD_ID": "4137760", "OBJECTID": 134 }, "geometry": { "type": "Point", "coordinates": [ -71.413858376241777, 42.276941571413872 ] } },
{ "type": "Feature", "properties": { "NAME": "Lynn Community Health Center Eye Clinic", "ADDRESS": "20 Central Avenue", "MUNICIPALITY": "Lynn", "GEOG_MUNI": "LYNN", "ZIP_CODE": "01901", "PHONE": "(781) 595-1350", "WEBSITE": "https://www.lynnchc.org/", "SERVICES": "Eye", "MAD_ID": "3783956", "OBJECTID": 135 }, "geometry": { "type": "Point", "coordinates": [ -70.946017829984356, 42.463969576704116 ] } }
]
}
